GPS Time;Q1;Q2;Q3;Q4;UTC;Sats;Lat;Lon;Elev;Intv;...12;Camera A;...14;Camera B;...16;ground_elev;AGL;Roll;Pitch;Yaw
103126842;0,4195;-0,5674;0,5635;0,4295;2024-09-02 04:38:28.842;16;-20,37969446;32,23474884;810,2572;;;Sango_R_A__00216_D1_02092024.JPG;;Sango_L_B__00215_D1_02092024.JPG;337;450;360,2572;178,3581354;73,78992831;-90,83738133
103129841;0,4147;-0,5702;0,5599;0,4353;2024-09-02 04:38:31.841;16;-20,37969086;32,23583672;808,3506;2,999;;Sango_R_A__00217_D1_02092024.JPG;;Sango_L_B__00216_D1_02092024.JPG;3;448;360,3506;176,9999915;73,88820032;-91,21192112
103132842;0,4189;-0,5669;0,5617;0,433;2024-09-02 04:38:34.842;16;-20,37969213;32,23693445;805,8238;3,001;;Sango_R_A__00218_D1_02092024.JPG;;Sango_L_B__00217_D1_02092024.JPG;3;448;357,8238;177,5993974;74,08575166;-91,28394162
103135841;0,4168;-0,57;0,5628;0,4297;2024-09-02 04:38:37.841;16;-20,37969078;32,23803321;805,3967;2,999;;Sango_R_A__00219_D1_02092024.JPG;;Sango_L_B__00218_D1_02092024.JPG;3;446;359,3967;178,2776137;73,53645432;-90,55873698
103138843;0,4176;-0,569;0,5594;0,4347;2024-09-02 04:38:40.843;16;-20,37967867;32,23913708;803,708;3,002;;Sango_R_A__00220_D1_02092024.JPG;;Sango_L_B__00219_D1_02092024.JPG;3;445;358,708;177,6716909;74,12440574;-90,7836989
103141843;0,4159;-0,5715;0,5602;0,432;2024-09-02 04:38:43.843;16;-20,37967672;32,24024119;802,1776;3;;Sango_R_A__00221_D1_02092024.JPG;;Sango_L_B__00220_D1_02092024.JPG;3;443;359,1776;178,23804;73,68231053;-90,17597886
103144842;0,418;-0,5699;0,5614;0,4306;2024-09-02 04:38:46.842;16;-20,37968812;32,24133985;799,6117;2,999;;Sango_R_A__00222_D1_02092024.JPG;;Sango_L_B__00221_D1_02092024.JPG;3;444;355,6117;178,5585132;73,74712252;-90,22031886
103147843;0,4164;-0,5697;0,5613;0,4325;2024-09-02 04:38:49.843;16;-20,37969854;32,24243896;796,4994;3,001;;Sango_R_A__00223_D1_02092024.JPG;;Sango_L_B__00222_D1_02092024.JPG;3;443;353,4994;177,727521;73,77719778;-90,85455389
103150842;0,4162;-0,5694;0,5602;0,4343;2024-09-02 04:38:52.842;16;-20,37971514;32,24353841;793,8065;2,999;;Sango_R_A__00224_D1_02092024.JPG;;Sango_L_B__00223_D1_02092024.JPG;3;441;352,8065;177,3836616;73,94720126;-91,03654374
103153842;0,4172;-0,5691;0,5612;0,4325;2024-09-02 04:38:55.842;16;-20,37974229;32,24463098;792,7818;3;;Sango_R_A__00225_D1_02092024.JPG;;Sango_L_B__00224_D1_02092024.JPG;3;442;350,7818;177,8180287;73,86339219;-90,83934381
103156841;0,4171;-0,5712;0,5605;0,4309;2024-09-02 04:38:58.841;16;-20,37978079;32,24571084;791,8504;2,999;;Sango_R_A__00226_D1_02092024.JPG;;Sango_L_B__00225_D1_02092024.JPG;3;441;350,8504;178,6649177;73,68982728;-89,91701394
103159842;0,418;-0,5644;0,5635;0,4349;2024-09-02 04:39:01.842;16;-20,37982017;32,24678134;790,7465;3,001;;Sango_R_A__00227_D1_02092024.JPG;;Sango_L_B__00226_D1_02092024.JPG;3;437;353,7465;176,1553199;74,16621737;-92,81495735
103162843;0,4165;-0,5693;0,5622;0,4317;2024-09-02 04:39:04.843;16;-20,37984075;32,24784309;789,4679;3,001;;Sango_R_A__00228_D1_02092024.JPG;;Sango_L_B__00227_D1_02092024.JPG;3;437;352,4679;177,7168968;73,70669682;-90,99236034
103165842;0,4167;-0,5688;0,5598;0,4352;2024-09-02 04:39:07.842;16;-20,3798332;32,24889788;787,8598;2,999;;Sango_R_A__00229_D1_02092024.JPG;;Sango_L_B__00228_D1_02092024.JPG;3;439;348,8598;177,2381015;74,08538866;-91,17085311
103168843;0,4164;-0,5697;0,5594;0,4348;2024-09-02 04:39:10.843;16;-20,37983477;32,24995098;786,8424;3,001;;Sango_R_A__00230_D1_02092024.JPG;;Sango_L_B__00229_D1_02092024.JPG;3;438;348,8424;177,5001471;74,01839638;-90,83922196
103171842;0,4178;-0,566;0,5628;0,434;2024-09-02 04:39:13.842;16;-20,37984669;32,25099879;786,2754;2,999;;Sango_R_A__00231_D1_02092024.JPG;;Sango_L_B__00230_D1_02092024.JPG;3;438;348,2754;176,7518051;74,06034882;-92,12580512
103174843;0,4158;-0,5713;0,5617;0,4305;2024-09-02 04:39:16.843;16;-20,37984604;32,25204245;784,9702;3,001;;Sango_R_A__00232_D1_02092024.JPG;;Sango_L_B__00231_D1_02092024.JPG;3;438;346,9702;178,2775053;73,51480496;-90,31571707
103177843;0,4175;-0,5685;0,5608;0,4336;2024-09-02 04:39:19.843;16;-20,37982638;32,25308253;783,9249;3;;Sango_R_A__00233_D1_02092024.JPG;;Sango_L_B__00232_D1_02092024.JPG;3;437;346,9249;177,5819961;74,00115637;-91,04093474
103180842;0,416;-0,5702;0,5599;0,434;2024-09-02 04:39:22.842;16;-20,37981287;32,25412808;782,2829;2,999;;Sango_R_A__00234_D1_02092024.JPG;;Sango_L_B__00233_D1_02092024.JPG;3;438;344,2829;177,6064978;73,89262507;-90,75584741
103183842;0,4166;-0,5701;0,5613;0,4316;2024-09-02 04:39:25.842;16;-20,37980615;32,25518257;778,8889;3;;Sango_R_A__00235_D1_02092024.JPG;;Sango_L_B__00234_D1_02092024.JPG;3;438;340,8889;178,0570308;73,71441639;-90,56534359
103186842;0,4173;-0,566;0,5636;0,4334;2024-09-02 04:39:28.842;16;-20,37979116;32,25624649;775,4721;3;;Sango_R_A__00236_D1_02092024.JPG;;Sango_L_B__00235_D1_02092024.JPG;3;438;337,4721;176,6525603;73,94830405;-92,27695433
103189843;0,4174;-0,5698;0,5606;0,4322;2024-09-02 04:39:31.843;16;-20,37975532;32,25732276;772,6545;3,001;;Sango_R_A__00237_D1_02092024.JPG;;Sango_L_B__00236_D1_02092024.JPG;3;439;333,6545;178,1630403;73,85448997;-90,44803914
103192842;0,4143;-0,5691;0,5624;0,4337;2024-09-02 04:39:34.842;16;-20,37971453;32,2584049;770,0156;2,999;;Sango_R_A__00238_D1_02092024.JPG;;Sango_L_B__00237_D1_02092024.JPG;3;444;326,0156;176,6796161;73,68454612;-91,80956483
103195843;0,4153;-0,569;0,5626;0,4328;2024-09-02 04:39:37.843;16;-20,37965772;32,2594939;768,4803;3,001;;Sango_R_A__00239_D1_02092024.JPG;;Sango_L_B__00238_D1_02092024.JPG;3;443;325,4803;177,0661467;73,68975169;-91,55050976
103198843;0,4155;-0,5691;0,5623;0,4328;2024-09-02 04:39:40.843;16;-20,37957859;32,26058231;767,1025;3;;Sango_R_A__00240_D1_02092024.JPG;;Sango_L_B__00239_D1_02092024.JPG;3;439;328,1025;177,1784501;73,71373767;-91,42663136
103201842;0,4149;-0,549;0,5603;0,4609;2024-09-02 04:39:43.842;16;-20,37948051;32,26166866;765,9072;2,999;;Sango_R_A__00241_D1_02092024.JPG;;Sango_L_B__00240_D1_02092024.JPG;3;439;326,9072;165,2108478;76,19046445;-102,7862696
103204843;0,4178;-0,5687;0,5627;0,4306;2024-09-02 04:39:46.843;16;-20,37937176;32,2627516;765,459;3,001;;Sango_R_A__00242_D1_02092024.JPG;;Sango_L_B__00241_D1_02092024.JPG;3;437;328,459;178,0794873;73,72616217;-90,83239438
103207842;0,4183;-0,5698;0,5593;0,433;2024-09-02 04:39:49.842;16;-20,37928081;32,26382862;766,1668;2,999;;Sango_R_A__00243_D1_02092024.JPG;;Sango_L_B__00242_D1_02092024.JPG;3;436;330,1668;178,4047907;74,02938277;-90,13714452
103210841;0,4153;-0,5719;0,5583;0,4345;2024-09-02 04:39:52.841;16;-20,37922127;32,26489365;767,5975;2,999;;Sango_R_A__00244_D1_02092024.JPG;;Sango_L_B__00243_D1_02092024.JPG;3;438;329,5975;177,9068158;73,87819175;-90,1950734
103213842;0,4158;-0,5733;0,5578;0,4328;2024-09-02 04:39:55.842;16;-20,37919757;32,26595173;768,0123;3,001;;Sango_R_A__00245_D1_02092024.JPG;;Sango_L_B__00244_D1_02092024.JPG;3;439;329,0123;178,7552584;73,75955694;-89,36370346
103216842;0,4146;-0,5714;0,5574;0,437;2024-09-02 04:39:58.842;16;-20,37919464;32,26700884;767,8535;3;;Sango_R_A__00246_D1_02092024.JPG;;Sango_L_B__00245_D1_02092024.JPG;3;442;325,8535;177,2113104;74,05939389;-90,68271955
103219842;0,4117;-0,5772;0,5538;0,4366;2024-09-02 04:40:01.842;16;-20,37922051;32,26806411;767,462;3;;Sango_R_A__00247_D1_02092024.JPG;;Sango_L_B__00246_D1_02092024.JPG;3;439;328,462;178,2981061;73,74758531;-88,90612065
103222842;0,4166;-0,5703;0,5611;0,4318;2024-09-02 04:40:04.842;16;-20,37926777;32,26912241;766,7791;3;;Sango_R_A__00248_D1_02092024.JPG;;Sango_L_B__00247_D1_02092024.JPG;3;438;328,7791;178,0793257;73,72768344;-90,50846477
103225841;0,4164;-0,5697;0,5616;0,432;2024-09-02 04:40:07.841;16;-20,37930091;32,27017938;766,2798;2,999;;Sango_R_A__00249_D1_02092024.JPG;;Sango_L_B__00248_D1_02092024.JPG;3;437;329,2798;177,7954953;73,73044495;-90,83273613
103228843;0,4175;-0,5682;0,5627;0,4315;2024-09-02 04:40:10.843;16;-20,3793174;32,27123206;766,1372;3,002;;Sango_R_A__00250_D1_02092024.JPG;;Sango_L_B__00249_D1_02092024.JPG;3;440;326,1372;177,7086233;73,7867857;-91,16280292
103231842;0,4175;-0,5689;0,5613;0,4325;2024-09-02 04:40:13.842;16;-20,37932185;32,27228622;765,9334;2,999;;Sango_R_A__00251_D1_02092024.JPG;;Sango_L_B__00250_D1_02092024.JPG;3;436;329,9334;177,8332992;73,88762736;-90,85892543
103234843;0,4168;-0,5698;0,5609;0,4324;2024-09-02 04:40:16.843;16;-20,3793221;32,27333756;765,5991;3,001;;Sango_R_A__00252_D1_02092024.JPG;;Sango_L_B__00251_D1_02092024.JPG;3;436;329,5991;177,9275943;73,81266943;-90,65448064
103237842;0,4173;-0,5688;0,5616;0,4322;2024-09-02 04:40:19.842;16;-20,37932814;32,27438747;764,7081;2,999;;Sango_R_A__00253_D1_02092024.JPG;;Sango_L_B__00252_D1_02092024.JPG;3;436;328,7081;177,7902883;73,84501571;-90,93067318
103240843;0,4173;-0,5689;0,5615;0,4324;2024-09-02 04:40:22.843;16;-20,37933235;32,27543622;764,3619;3,001;;Sango_R_A__00254_D1_02092024.JPG;;Sango_L_B__00253_D1_02092024.JPG;3;438;326,3619;177,7776619;73,85800298;-90,92028312
103243842;0,416;-0,5709;0,5603;0,4325;2024-09-02 04:40:25.842;16;-20,37933636;32,2764814;765,2605;2,999;;Sango_R_A__00255_D1_02092024.JPG;;Sango_L_B__00254_D1_02092024.JPG;3;438;327,2605;178,0201307;73,74428882;-90,41133003
103246842;0,4162;-0,571;0,5603;0,4322;2024-09-02 04:40:28.842;16;-20,3793523;32,27752164;766,0185;3;;Sango_R_A__00256_D1_02092024.JPG;;Sango_L_B__00255_D1_02092024.JPG;3;441;325,0185;178,1540206;73,73357672;-90,3005891
103249843;0,4159;-0,5695;0,5614;0,4329;2024-09-02 04:40:31.843;16;-20,37936644;32,27856051;765,3088;3,001;;Sango_R_A__00257_D1_02092024.JPG;;Sango_L_B__00256_D1_02092024.JPG;3;439;326,3088;177,4665729;73,77363976;-91,08063424
103252842;0,4166;-0,5691;0,5611;0,4332;2024-09-02 04:40:34.842;16;-20,37937048;32,27959688;765,1228;2,999;;Sango_R_A__00258_D1_02092024.JPG;;Sango_L_B__00257_D1_02092024.JPG;3;439;326,1228;177,5314421;73,8729288;-91,0449178
103255842;0,4177;-0,5685;0,562;0,4319;2024-09-02 04:40:37.842;16;-20,37937379;32,28063045;765,1255;3;;Sango_R_A__00259_D1_02092024.JPG;;Sango_L_B__00258_D1_02092024.JPG;3;441;324,1255;177,8308583;73,84650392;-90,97124316
103258843;0,4176;-0,57;0,5599;0,4328;2024-09-02 04:40:40.843;16;-20,37938443;32,28165986;765,5065;3,001;;Sango_R_A__00260_D1_02092024.JPG;;Sango_L_B__00259_D1_02092024.JPG;3;444;321,5065;178,2226854;73,93130472;-90,31339059
103261843;0,4176;-0,5701;0,5612;0,4308;2024-09-02 04:40:43.843;16;-20,37941237;32,28268028;765,6557;3;;Sango_R_A__00261_D1_02092024.JPG;;Sango_L_B__00260_D1_02092024.JPG;3;445;320,6557;178,4896036;73,73407943;-90,23122875
103264843;0,4163;-0,5695;0,5619;0,432;2024-09-02 04:40:46.843;16;-20,37944285;32,28370117;764,5356;3;;Sango_R_A__00262_D1_02092024.JPG;;Sango_L_B__00261_D1_02092024.JPG;3;445;319,5356;177,6868026;73,71812925;-90,9645789
103267842;0,4181;-0,5663;0,5638;0,432;2024-09-02 04:40:49.842;16;-20,37945895;32,28472824;763,6348;2,999;;Sango_R_A__00263_D1_02092024.JPG;;Sango_L_B__00262_D1_02092024.JPG;3;448;315,6348;177,1940186;73,89086566;-91,85695673
103270843;0,4185;-0,5673;0,5633;0,431;2024-09-02 04:40:52.843;16;-20,3794614;32,28575513;764,009;3,001;;Sango_R_A__00264_D1_02092024.JPG;;Sango_L_B__00263_D1_02092024.JPG;3;446;318,009;177,7905683;73,83353821;-91,25457237
103273842;0,4187;-0,5693;0,5641;0,4271;2024-09-02 04:40:55.842;16;-20,37946085;32,28677813;762,488;2,999;;Sango_R_A__00265_D1_02092024.JPG;;Sango_L_B__00264_D1_02092024.JPG;3;447;315,488;178,9688215;73,463672;-90,24377925
103276843;0,417;-0,5695;0,5618;0,4314;2024-09-02 04:40:58.843;16;-20,37945091;32,28781123;759,5181;3,001;;Sango_R_A__00266_D1_02092024.JPG;;Sango_L_B__00265_D1_02092024.JPG;3;442;317,5181;178,0037178;73,73143337;-90,71711455
103279842;0,4168;-0,5684;0,5621;0,4327;2024-09-02 04:41:01.842;16;-20,37942234;32,28885514;757,2234;2,999;;Sango_R_A__00267_D1_02092024.JPG;;Sango_L_B__00266_D1_02092024.JPG;3;437;320,2234;177,4009448;73,83684282;-91,31429456
103282845;0,4173;-0,5699;0,5598;0,4332;2024-09-02 04:41:04.845;16;-20,37939548;32,28990347;756,3812;3,003;;Sango_R_A__00268_D1_02092024.JPG;;Sango_L_B__00267_D1_02092024.JPG;3;439;317,3812;178,0576797;73,946819;-90,43782106
103285842;0,418;-0,5681;0,5611;0,4333;2024-09-02 04:41:07.842;16;-20,37937892;32,29094853;755,9287;2,997;;Sango_R_A__00269_D1_02092024.JPG;;Sango_L_B__00268_D1_02092024.JPG;3;440;315,9287;177,6441528;74,0189982;-91,06562561
103288842;0,4174;-0,5709;0,5609;0,4304;2024-09-02 04:41:10.842;16;-20,37938787;32,2919886;756,3019;3;;Sango_R_A__00270_D1_02092024.JPG;;Sango_L_B__00269_D1_02092024.JPG;3;440;316,3019;178,7291238;73,67191536;-89,93955303
103291842;0,4157;-0,5712;0,5594;0,4336;2024-09-02 04:41:13.842;16;-20,37940704;32,29302852;754,7697;3;;Sango_R_A__00271_D1_02092024.JPG;;Sango_L_B__00270_D1_02092024.JPG;3;439;315,7697;177,8983181;73,8253594;-90,38285057
103294841;0,4149;-0,5717;0,5593;0,4339;2024-09-02 04:41:16.841;16;-20,37942839;32,29407422;753,2939;2,999;;Sango_R_A__00272_D1_02092024.JPG;;Sango_L_B__00271_D1_02092024.JPG;3;441;312,2939;177,7515839;73,77308719;-90,4311248
103297843;0,4165;-0,5696;0,5618;0,4318;2024-09-02 04:41:19.843;16;-20,3794453;32,29511807;752,9566;3,002;;Sango_R_A__00273_D1_02092024.JPG;;Sango_L_B__00272_D1_02092024.JPG;3;442;310,9566;177,8139302;73,71904751;-90,84902634
103300842;0,4171;-0,569;0,5604;0,4339;2024-09-02 04:41:22.842;16;-20,37944684;32,29615737;752,8035;2,999;;Sango_R_A__00274_D1_02092024.JPG;;Sango_L_B__00273_D1_02092024.JPG;3;436;316,8035;177,5780788;73,99031078;-90,95228573
103303842;0,4164;-0,5703;0,559;0,4346;2024-09-02 04:41:25.842;16;-20,37945473;32,29719288;752,6233;3;;Sango_R_A__00275_D1_02092024.JPG;;Sango_L_B__00274_D1_02092024.JPG;3;438;314,6233;177,7262777;73,99763796;-90,56680875
103306846;0,4165;-0,5723;0,5571;0,4344;2024-09-02 04:41:28.846;16;-20,37948309;32,29822781;752,1238;3,004;;Sango_R_A__00276_D1_02092024.JPG;;Sango_L_B__00275_D1_02092024.JPG;3;444;308,1238;178,4869575;73,99085421;-89,59786424
103309842;0,4169;-0,572;0,5588;0,4322;2024-09-02 04:41:31.842;16;-20,37954196;32,29926133;751,4277;2,996;;Sango_R_A__00277_D1_02092024.JPG;;Sango_L_B__00276_D1_02092024.JPG;3;442;309,4277;178,7481862;73,80583466;-89,6024205
103312846;0,4166;-0,5707;0,5587;0,4343;2024-09-02 04:41:34.846;16;-20,37961754;32,3002995;749,5828;3,004;;Sango_R_A__00278_D1_02092024.JPG;;Sango_L_B__00277_D1_02092024.JPG;3;438;311,5828;177,9682611;73,98785754;-90,31325471
103315842;0,4154;-0,5723;0,5574;0,435;2024-09-02 04:41:37.842;16;-20,37971314;32,30133813;750,0183;2,996;;Sango_R_A__00279_D1_02092024.JPG;;Sango_L_B__00278_D1_02092024.JPG;3;436;314,0183;178,0377459;73,94255844;-89,96588586
103364035;0,4363;-0,5526;0,5767;0,4144;2024-09-02 04:42:26.035;16;-20,37661626;32,30152301;735,4693;48,193;;Sango_R_A__00280_D1_02092024.JPG;;Sango_L_B__00279_D1_02092024.JPG;48;436;299,4693;-179,1215593;73,9850925;-91,7833086
103367035;0,4396;-0,5427;0,5844;0,4132;2024-09-02 04:42:29.035;16;-20,37675329;32,30041006;735,5956;3;;Sango_R_A__00281_D1_02092024.JPG;;Sango_L_B__00280_D1_02092024.JPG;3;442;293,5956;178,7773949;74,20964321;-95,16250606
103370036;0,4415;-0,5397;0,5818;0,4186;2024-09-02 04:42:32.036;16;-20,3768184;32,29929051;735,3082;3,001;;Sango_R_A__00282_D1_02092024.JPG;;Sango_L_B__00281_D1_02092024.JPG;3;438;297,3082;177,6778612;74,9385748;-96,07959827
103373035;0,4399;-0,5456;0,5874;0,4046;2024-09-02 04:42:35.035;16;-20,37680375;32,29817295;735,4473;2,999;;Sango_R_A__00283_D1_02092024.JPG;;Sango_L_B__00282_D1_02092024.JPG;3;440;295,4473;-179,0579218;73,40748518;-93,52342702
103376035;0,4388;-0,5405;0,5875;0,4124;2024-09-02 04:42:38.035;16;-20,37675067;32,29705688;734,2519;3;;Sango_R_A__00284_D1_02092024.JPG;;Sango_L_B__00283_D1_02092024.JPG;3;442;292,2519;177,867662;74,04449306;-96,38009847
103379035;0,4384;-0,5414;0,5877;0,4114;2024-09-02 04:42:41.035;16;-20,37671693;32,2959357;733,6149;3;;Sango_R_A__00285_D1_02092024.JPG;;Sango_L_B__00284_D1_02092024.JPG;3;433;300,6149;178,1683801;73,9058661;-96,07424109
103382035;0,4375;-0,5441;0,5856;0,4118;2024-09-02 04:42:44.035;16;-20,37669703;32,29480914;732,8094;3;;Sango_R_A__00286_D1_02092024.JPG;;Sango_L_B__00285_D1_02092024.JPG;3;441;291,8094;178,719723;73,85507721;-95,16991576
103385036;0,438;-0,5418;0,5877;0,4113;2024-09-02 04:42:47.036;16;-20,376677;32,29367726;732,5224;3,001;;Sango_R_A__00287_D1_02092024.JPG;;Sango_L_B__00286_D1_02092024.JPG;3;438;294,5224;178,1812551;73,85430792;-96,0210985
103388035;0,4384;-0,5419;0,5862;0,4129;2024-09-02 04:42:50.035;16;-20,37666501;32,2925428;732,1653;2,999;;Sango_R_A__00288_D1_02092024.JPG;;Sango_L_B__00287_D1_02092024.JPG;3;440;292,1653;178,1340873;74,05229823;-95,90510539
103391035;0,4375;-0,5429;0,5859;0,413;2024-09-02 04:42:53.035;16;-20,37665541;32,29140996;731,9862;3;;Sango_R_A__00289_D1_02092024.JPG;;Sango_L_B__00288_D1_02092024.JPG;3;439;292,9862;178,1500559;73,96709006;-95,75634217
103394035;0,4387;-0,5404;0,5857;0,4153;2024-09-02 04:42:56.035;16;-20,37664932;32,29027861;732,3939;3;;Sango_R_A__00290_D1_02092024.JPG;;Sango_L_B__00289_D1_02092024.JPG;3;435;297,3939;177,3855539;74,31049655;-96,58863098
103397035;0,4394;-0,5398;0,5879;0,4122;2024-09-02 04:42:59.035;16;-20,37664173;32,2891536;732,9011;3;;Sango_R_A__00291_D1_02092024.JPG;;Sango_L_B__00290_D1_02092024.JPG;3;439;293,9011;177,8498207;74,0841884;-96,50757085
103400036;0,4406;-0,5389;0,5877;0,4124;2024-09-02 04:43:02.036;16;-20,37661302;32,28803367;734,5413;3,001;;Sango_R_A__00292_D1_02092024.JPG;;Sango_L_B__00291_D1_02092024.JPG;3;446;288,5413;177,9216841;74,22982332;-96,53330892
103403036;0,4409;-0,5389;0,5881;0,4115;2024-09-02 04:43:05.036;16;-20,37656677;32,28692539;734,8543;3;;Sango_R_A__00293_D1_02092024.JPG;;Sango_L_B__00292_D1_02092024.JPG;3;445;289,8543;178,1497957;74,17548287;-96,39813141
103406035;0,4399;-0,5395;0,5899;0,4091;2024-09-02 04:43:08.035;16;-20,37649733;32,28582392;735,6692;2,999;;Sango_R_A__00294_D1_02092024.JPG;;Sango_L_B__00293_D1_02092024.JPG;3;447;288,6692;178,3518075;73,84089344;-96,34876625
103409035;0,4398;-0,5409;0,5889;0,4088;2024-09-02 04:43:11.035;16;-20,3764243;32,28472532;735,6852;3;;Sango_R_A__00295_D1_02092024.JPG;;Sango_L_B__00294_D1_02092024.JPG;3;443;292,6852;178,827061;73,8044818;-95,74629436
103412036;0,4387;-0,5412;0,5872;0,4121;2024-09-02 04:43:14.036;16;-20,3763639;32,28362017;735,6207;3,001;;Sango_R_A__00296_D1_02092024.JPG;;Sango_L_B__00295_D1_02092024.JPG;3;441;294,6207;178,1031522;74,00388299;-96,09835294
103415036;0,4384;-0,5387;0,5901;0,4115;2024-09-02 04:43:17.036;16;-20,37632037;32,28250696;735,7117;3;;Sango_R_A__00297_D1_02092024.JPG;;Sango_L_B__00296_D1_02092024.JPG;3;437;298,7117;177,2458271;73,9053443;-97,2863608
103418035;0,4377;-0,5391;0,588;0,4147;2024-09-02 04:43:20.035;16;-20,37629265;32,2813924;735,5426;2,999;;Sango_R_A__00298_D1_02092024.JPG;;Sango_L_B__00297_D1_02092024.JPG;3;441;294,5426;176,694009;74,13990727;-97,46639141
103421035;0,4394;-0,5401;0,5869;0,4133;2024-09-02 04:43:23.035;16;-20,3762783;32,28027618;735,6841;3;;Sango_R_A__00299_D1_02092024.JPG;;Sango_L_B__00298_D1_02092024.JPG;3;441;294,6841;177,7932576;74,18934848;-96,42452887
103424035;0,4394;-0,5407;0,5887;0,4098;2024-09-02 04:43:26.035;16;-20,37625959;32,27916215;736,3851;3;;Sango_R_A__00300_D1_02092024.JPG;;Sango_L_B__00299_D1_02092024.JPG;3;441;295,3851;178,4888998;73,85726387;-96,00303887
103427035;0,4393;-0,5452;0,5862;0,4077;2024-09-02 04:43:29.035;16;-20,3762451;32,2780455;737,483;3;;Sango_R_A__00301_D1_02092024.JPG;;Sango_L_B__00300_D1_02092024.JPG;3;441;296,483;-179,791452;73,64130503;-93,99465447
103430036;0,4398;-0,5393;0,5882;0,4121;2024-09-02 04:43:32.036;16;-20,37623599;32,27693266;738,1482;3,001;;Sango_R_A__00302_D1_02092024.JPG;;Sango_L_B__00301_D1_02092024.JPG;3;441;297,1482;177,817455;74,11236989;-96,6148657
103433035;0,4389;-0,5422;0,5871;0,4106;2024-09-02 04:43:35.035;16;-20,37622768;32,27582066;738,4039;2,999;;Sango_R_A__00303_D1_02092024.JPG;;Sango_L_B__00302_D1_02092024.JPG;3;443;295,4039;178,7232568;73,88654182;-95,51379556
103436035;0,4389;-0,5406;0,5868;0,4132;2024-09-02 04:43:38.035;16;-20,37622424;32,27470749;738,6775;3;;Sango_R_A__00304_D1_02092024.JPG;;Sango_L_B__00303_D1_02092024.JPG;3;441;297,6775;177,8215743;74,13174002;-96,33882615
103439035;0,4401;-0,5415;0,5866;0,4111;2024-09-02 04:43:41.035;16;-20,37622362;32,27359287;739,9593;3;;Sango_R_A__00305_D1_02092024.JPG;;Sango_L_B__00304_D1_02092024.JPG;3;441;298,9593;178,8163642;74,05671978;-95,47165223
103442035;0,4384;-0,5415;0,5877;0,4115;2024-09-02 04:43:44.035;16;-20,37621801;32,27247538;739,4842;3;;Sango_R_A__00306_D1_02092024.JPG;;Sango_L_B__00305_D1_02092024.JPG;3;440;299,4842;178,1623837;73,90740973;-96,06824474
103445035;0,4388;-0,5406;0,5874;0,4126;2024-09-02 04:43:47.035;16;-20,37621178;32,27134667;739,2957;3;;Sango_R_A__00307_D1_02092024.JPG;;Sango_L_B__00306_D1_02092024.JPG;3;437;302,2957;177,8528188;74,0572813;-96,37138767
103448035;0,4389;-0,5415;0,5867;0,4123;2024-09-02 04:43:50.035;16;-20,37620229;32,27021093;739,6416;3;;Sango_R_A__00308_D1_02092024.JPG;;Sango_L_B__00307_D1_02092024.JPG;3;438;301,6416;178,2358833;74,04230885;-95,91894554
103451035;0,4393;-0,5413;0,5862;0,4128;2024-09-02 04:43:53.035;16;-20,37618968;32,26907215;740,7088;3;;Sango_R_A__00309_D1_02092024.JPG;;Sango_L_B__00308_D1_02092024.JPG;3;439;301,7088;178,2432828;74,13512354;-95,88800236
103454035;0,4381;-0,5423;0,5866;0,4122;2024-09-02 04:43:56.035;16;-20,37617167;32,26793334;742,5596;3;;Sango_R_A__00310_D1_02092024.JPG;;Sango_L_B__00309_D1_02092024.JPG;3;442;300,5596;178,2527813;73,95043335;-95,80994941
103457035;0,4395;-0,5401;0,5875;0,4122;2024-09-02 04:43:59.035;16;-20,37615818;32,26679883;742,9087;3;;Sango_R_A__00311_D1_02092024.JPG;;Sango_L_B__00310_D1_02092024.JPG;3;439;303,9087;177,9945737;74,09868877;-96,32813068
103460035;0,4375;-0,542;0,5856;0,4147;2024-09-02 04:44:02.035;16;-20,37615451;32,26566263;744,2032;3;;Sango_R_A__00312_D1_02092024.JPG;;Sango_L_B__00311_D1_02092024.JPG;3;441;303,2032;177,6017583;74,12566094;-96,24005833
103463035;0,4381;-0,5419;0,5857;0,414;2024-09-02 04:44:05.035;16;-20,37615415;32,26452776;745,4977;3;;Sango_R_A__00313_D1_02092024.JPG;;Sango_L_B__00312_D1_02092024.JPG;3;438;307,4977;177,8743172;74,12418976;-96,05441847
103466035;0,4405;-0,5403;0,5885;0,4096;2024-09-02 04:44:08.035;16;-20,37614677;32,26339496;746,8413;3;;Sango_R_A__00314_D1_02092024.JPG;;Sango_L_B__00313_D1_02092024.JPG;3;441;305,8413;178,7369754;73,94904657;-95,84100707
103469035;0,4388;-0,5413;0,5873;0,4117;2024-09-02 04:44:11.035;16;-20,37612942;32,26226349;747,7435;3;;Sango_R_A__00315_D1_02092024.JPG;;Sango_L_B__00314_D1_02092024.JPG;3;440;307,7435;178,2274047;73,97688109;-96,00322378
103472035;0,4387;-0,5416;0,5865;0,4126;2024-09-02 04:44:14.035;16;-20,37610858;32,26112539;749,2048;3;;Sango_R_A__00316_D1_02092024.JPG;;Sango_L_B__00315_D1_02092024.JPG;3;438;311,2048;178,1687786;74,05263723;-95,93979675
103475035;0,4396;-0,5404;0,588;0,4112;2024-09-02 04:44:17.035;16;-20,37609008;32,25999374;750,2351;3;;Sango_R_A__00317_D1_02092024.JPG;;Sango_L_B__00316_D1_02092024.JPG;3;439;311,2351;178,2425209;74,00568675;-96,15556005
103478035;0,4422;-0,5361;0,5889;0,4127;2024-09-02 04:44:20.035;16;-20,37606711;32,25886051;751,5842;3;;Sango_R_A__00318_D1_02092024.JPG;;Sango_L_B__00317_D1_02092024.JPG;3;438;313,5842;177,4499094;74,41950724;-97,31066395
103481035;0,4373;-0,5438;0,5857;0,4124;2024-09-02 04:44:23.035;16;-20,37604603;32,25772909;752,5748;3;;Sango_R_A__00319_D1_02092024.JPG;;Sango_L_B__00318_D1_02092024.JPG;3;435;317,5748;178,4561719;73,88657512;-95,40994145
103484035;0,4417;-0,5389;0,5892;0,4091;2024-09-02 04:44:26.035;16;-20,37602838;32,25659664;753,8882;3;;Sango_R_A__00320_D1_02092024.JPG;;Sango_L_B__00319_D1_02092024.JPG;3;436;317,8882;178,7466071;74,02813429;-96,05105269
103487035;0,4392;-0,5414;0,5865;0,4123;2024-09-02 04:44:29.035;16;-20,37601883;32,25545954;754,7648;3;;Sango_R_A__00321_D1_02092024.JPG;;Sango_L_B__00320_D1_02092024.JPG;3;438;316,7648;178,3159022;74,07784245;-95,85048979
103490035;0,4394;-0,5402;0,5883;0,4111;2024-09-02 04:44:32.035;16;-20,3760115;32,25431827;754,8994;3;;Sango_R_A__00322_D1_02092024.JPG;;Sango_L_B__00321_D1_02092024.JPG;3;438;316,8994;178,1369268;73,97919273;-96,28472535
103493035;0,4407;-0,5396;0,5888;0,4099;2024-09-02 04:44:35.035;16;-20,37600877;32,25317063;756,2135;3;;Sango_R_A__00323_D1_02092024.JPG;;Sango_L_B__00322_D1_02092024.JPG;3;438;318,2135;178,5254565;73,9970939;-96,10432421
103496035;0,4363;-0,5425;0,5874;0,4127;2024-09-02 04:44:38.035;16;-20,37601219;32,25202593;757,2141;3;;Sango_R_A__00324_D1_02092024.JPG;;Sango_L_B__00323_D1_02092024.JPG;3;438;319,2141;177,6462041;73,80575462;-96,31882141
103499035;0,4381;-0,5419;0,5865;0,4129;2024-09-02 04:44:41.035;16;-20,37602201;32,2508802;758,2969;3;;Sango_R_A__00325_D1_02092024.JPG;;Sango_L_B__00324_D1_02092024.JPG;3;437;321,2969;178,0191231;74,01599365;-96,02006956
103502035;0,4388;-0,5406;0,5878;0,4119;2024-09-02 04:44:44.035;16;-20,37603692;32,2497326;759,7438;3;;Sango_R_A__00326_D1_02092024.JPG;;Sango_L_B__00325_D1_02092024.JPG;3;440;319,7438;177,9633129;73,99422818;-96,3251364
103505035;0,4392;-0,5414;0,5867;0,4121;2024-09-02 04:44:47.035;16;-20,37605439;32,24859113;761,7032;3;;Sango_R_A__00327_D1_02092024.JPG;;Sango_L_B__00326_D1_02092024.JPG;3;438;323,7032;178,3328937;74,05531031;-95,8566244
103508035;0,4399;-0,5403;0,5876;0,4115;2024-09-02 04:44:50.035;16;-20,37607242;32,24745704;763,05;3;;Sango_R_A__00328_D1_02092024.JPG;;Sango_L_B__00327_D1_02092024.JPG;3;438;325,05;178,2799201;74,06982342;-96,10059577
103511035;0,442;-0,5377;0,5904;0,4086;2024-09-02 04:44:53.035;16;-20,37608668;32,24632426;764,5482;3;;Sango_R_A__00329_D1_02092024.JPG;;Sango_L_B__00328_D1_02092024.JPG;3;439;325,5482;178,5130744;74,01026672;-96,47005254
103514035;0,4396;-0,5399;0,5867;0,4135;2024-09-02 04:44:56.035;16;-20,37609164;32,24519241;765,9018;3;;Sango_R_A__00330_D1_02092024.JPG;;Sango_L_B__00329_D1_02092024.JPG;3;442;323,9018;177,7806821;74,23462177;-96,4371044
103517035;0,4403;-0,5415;0,5868;0,4106;2024-09-02 04:44:59.035;16;-20,37608438;32,24406422;767,7984;3;;Sango_R_A__00331_D1_02092024.JPG;;Sango_L_B__00330_D1_02092024.JPG;3;441;326,7984;178,9514108;74,0294902;-95,38885637
103520035;0,4393;-0,5408;0,5872;0,412;2024-09-02 04:45:02.035;16;-20,37605087;32,24294716;771,1609;3;;Sango_R_A__00332_D1_02092024.JPG;;Sango_L_B__00331_D1_02092024.JPG;3;445;326,1609;178,1837059;74,05712491;-96,08118477
103523035;0,4423;-0,5357;0,5842;0,4196;2024-09-02 04:45:05.035;16;-20,37599367;32,24183412;773,9956;3;;Sango_R_A__00333_D1_02092024.JPG;;Sango_L_B__00332_D1_02092024.JPG;3;443;330,9956;176,3469837;75,10171021;-97,76816993
103526035;0,4448;-0,5397;0,5848;0,4111;2024-09-02 04:45:08.035;16;-20,3757991;32,24076072;776,8512;3;;Sango_R_A__00334_D1_02092024.JPG;;Sango_L_B__00333_D1_02092024.JPG;3;446;330,8512;179,848288;74,55064215;-94,70889941
103529035;0,444;-0,544;0,582;0,4101;2024-09-02 04:45:11.035;16;-20,37541965;32,23975723;778,1344;3;;Sango_R_A__00335_D1_02092024.JPG;;Sango_L_B__00334_D1_02092024.JPG;3;445;333,1344;-178,7843313;74,37092473;-92,94347221
103532035;0,4422;-0,5425;0,5917;0,4;2024-09-02 04:45:14.035;16;-20,37487575;32,2388398;777,8767;3;;Sango_R_A__00336_D1_02092024.JPG;;Sango_L_B__00335_D1_02092024.JPG;3;444;333,8767;-178,7254691;73,2043864;-94,02106282
103535036;0,4391;-0,5395;0,5923;0,4065;2024-09-02 04:45:17.036;16;-20,37428439;32,23792769;776,4119;3,001;;Sango_R_A__00337_D1_02092024.JPG;;Sango_L_B__00336_D1_02092024.JPG;3;442;334,4119;178,4357129;73,50366561;-96,51019669
103538036;0,4372;-0,5405;0,5917;0,4082;2024-09-02 04:45:20.036;16;-20,37372343;32,23697893;775,4703;3;;Sango_R_A__00338_D1_02092024.JPG;;Sango_L_B__00337_D1_02092024.JPG;3;445;330,4703;177,8961094;73,46122279;-96,74851527
103541036;0,435;-0,5437;0,5923;0,4054;2024-09-02 04:45:23.036;16;-20,37319875;32,23598217;774,0791;3;;Sango_R_A__00339_D1_02092024.JPG;;Sango_L_B__00338_D1_02092024.JPG;3;446;328,0791;178,5881466;72,9657784;-95,94352105
103544036;0,4385;-0,5372;0,5917;0,4111;2024-09-02 04:45:26.036;16;-20,37273967;32,23493566;774,1805;3;;Sango_R_A__00340_D1_02092024.JPG;;Sango_L_B__00339_D1_02092024.JPG;3;445;329,1805;176,8284422;73,86873592;-97,91236835
103547036;0,4403;-0,5364;0,5912;0,411;2024-09-02 04:45:29.036;16;-20,37234142;32,23385683;774,5299;3;;Sango_R_A__00341_D1_02092024.JPG;;Sango_L_B__00340_D1_02092024.JPG;3;446;328,5299;177,1605652;74,05067126;-97,70645913
103550036;0,4392;-0,5376;0,591;0,4108;2024-09-02 04:45:32.036;16;-20,37198048;32,23276364;775,289;3;;Sango_R_A__00342_D1_02092024.JPG;;Sango_L_B__00341_D1_02092024.JPG;3;445;330,289;177,2397268;73,92012214;-97,4950627
103553036;0,4379;-0,5395;0,588;0,4141;2024-09-02 04:45:35.036;16;-20,37166007;32,23165455;776,1071;3;;Sango_R_A__00343_D1_02092024.JPG;;Sango_L_B__00342_D1_02092024.JPG;3;444;332,1071;176,9685972;74,10105207;-97,21492824
103556035;0,4393;-0,5393;0,5892;0,4111;2024-09-02 04:45:38.035;16;-20,37135306;32,2305484;777,9235;2,999;;Sango_R_A__00344_D1_02092024.JPG;;Sango_L_B__00343_D1_02092024.JPG;3;446;331,9235;177,7983638;73,96524395;-96,72180316
103559036;0,441;-0,5374;0,5899;0,4108;2024-09-02 04:45:41.036;16;-20,37105368;32,22944505;779,7533;3,001;;Sango_R_A__00345_D1_02092024.JPG;;Sango_L_B__00344_D1_02092024.JPG;3;448;331,7533;177,7651622;74,11268375;-97,0204534
103562036;0,44;-0,5392;0,5907;0,4085;2024-09-02 04:45:44.036;16;-20,37075474;32,22834893;781,1707;3;;Sango_R_A__00346_D1_02092024.JPG;;Sango_L_B__00345_D1_02092024.JPG;3;450;331,1707;178,3369678;73,78331623;-96,46768509
103565036;0,4386;-0,5391;0,5906;0,41;2024-09-02 04:45:47.036;16;-20,37047101;32,22725271;782,1882;3;;Sango_R_A__00347_D1_02092024.JPG;;Sango_L_B__00346_D1_02092024.JPG;3;448;334,1882;177,6612459;73,78600195;-96,97595423
103568036;0,4413;-0,5362;0,5893;0,4129;2024-09-02 04:45:50.036;16;-20,37021543;32,22614429;781,944;3;;Sango_R_A__00348_D1_02092024.JPG;;Sango_L_B__00347_D1_02092024.JPG;3;450;331,944;177,1553676;74,34282661;-97,55945859
103571035;0,4432;-0,5354;0,587;0,4151;2024-09-02 04:45:53.035;16;-20,36997248;32,22502491;782,9375;2,999;;Sango_R_A__00349_D1_02092024.JPG;;Sango_L_B__00348_D1_02092024.JPG;3;451;331,9375;177,2193723;74,76320904;-97,38911106
103574036;0,4426;-0,5412;0,5862;0,4094;2024-09-02 04:45:56.036;16;-20,36968438;32,22392434;784,3349;3,001;;Sango_R_A__00350_D1_02092024.JPG;;Sango_L_B__00349_D1_02092024.JPG;3;450;334,3349;179,8089649;74,15607641;-94,71584164
103577036;0,4403;-0,5426;0,5906;0,4037;2024-09-02 04:45:59.036;16;-20,3693103;32,22286039;786,399;3;;Sango_R_A__00351_D1_02092024.JPG;;Sango_L_B__00350_D1_02092024.JPG;3;450;336,399;-179,8073138;73,35927125;-94,70744338
103580036;0,4411;-0,5346;0,5905;0,4135;2024-09-02 04:46:02.036;16;-20,36890955;32,22181254;786,8555;3;;Sango_R_A__00352_D1_02092024.JPG;;Sango_L_B__00351_D1_02092024.JPG;3;454;332,8555;176,4425781;74,36877489;-98,38781393
103583036;0,4406;-0,5384;0,5899;0,4099;2024-09-02 04:46:05.036;16;-20,36852224;32,22075051;785,6483;3;;Sango_R_A__00353_D1_02092024.JPG;;Sango_L_B__00352_D1_02092024.JPG;3;452;333,6483;178,0967429;73,98663507;-96,66069278
103586036;0,4397;-0,5396;0,5888;0,4108;2024-09-02 04:46:08.036;16;-20,36813783;32,21965824;782,693;3;;Sango_R_A__00354_D1_02092024.JPG;;Sango_L_B__00353_D1_02092024.JPG;3;452;330,693;178,08217;73,98254235;-96,43799696
103589035;0,4407;-0,537;0,5897;0,4119;2024-09-02 04:46:11.035;16;-20,36776166;32,21854232;782,0052;2,999;;Sango_R_A__00355_D1_02092024.JPG;;Sango_L_B__00354_D1_02092024.JPG;3;450;332,0052;177,3746183;74,18543193;-97,34115966
103592036;0,4397;-0,5385;0,5902;0,4103;2024-09-02 04:46:14.036;16;-20,36739038;32,21743061;782,817;3,001;;Sango_R_A__00356_D1_02092024.JPG;;Sango_L_B__00355_D1_02092024.JPG;3;453;329,817;177,7723018;73,92799326;-96,92177852
103595036;0,4421;-0,537;0,5895;0,4107;2024-09-02 04:46:17.036;16;-20,36703189;32,2163237;782,0318;3;;Sango_R_A__00357_D1_02092024.JPG;;Sango_L_B__00356_D1_02092024.JPG;3;456;326,0318;178,0189317;74,22185482;-96,83555203
103598035;0,4411;-0,5391;0,5888;0,41;2024-09-02 04:46:20.035;16;-20,36667395;32,215217;782,8563;2,999;;Sango_R_A__00358_D1_02092024.JPG;;Sango_L_B__00357_D1_02092024.JPG;3;455;327,8563;178,4937152;74,05321011;-96,18231218
103601035;0,4396;-0,5387;0,5909;0,4092;2024-09-02 04:46:23.035;16;-20,36631296;32,21411315;784,0797;3;;Sango_R_A__00359_D1_02092024.JPG;;Sango_L_B__00358_D1_02092024.JPG;3;453;331,0797;177,9514904;73,80954992;-96,83003447
103604035;0,4407;-0,5379;0,5909;0,409;2024-09-02 04:46:26.035;16;-20,36595938;32,21300865;784,6885;3;;Sango_R_A__00360_D1_02092024.JPG;;Sango_L_B__00359_D1_02092024.JPG;3;456;328,6885;178,0871804;73,90939656;-96,81551466
103714234;0,4074;-0,5772;0,5558;0,4381;2024-09-02 04:48:16.234;16;-20,36604519;32,21354441;822,0976;110,199;;Sango_R_A__00361_D1_02092024.JPG;;Sango_L_B__00360_D1_02092024.JPG;110;455;367,0976;176,6388264;73,46132339;-90,34432208
103716843;0,4176;-0,5633;0,5653;0,4344;2024-09-02 04:48:18.843;16;-20,36607738;32,21444945;819,3927;2,609;;Sango_R_A__00362_D1_02092024.JPG;;Sango_L_B__00361_D1_02092024.JPG;3;455;364,3927;175,6835563;74,06381933;-93,46017616
103719843;0,4201;-0,5645;0,5638;0,4324;2024-09-02 04:48:21.843;16;-20,36604084;32,21550693;816,933;3;;Sango_R_A__00363_D1_02092024.JPG;;Sango_L_B__00362_D1_02092024.JPG;3;456;360,933;177,2155627;74,13307727;-92,03238317
103722842;0,4163;-0,5715;0,5599;0,4319;2024-09-02 04:48:24.842;16;-20,36598281;32,21660129;811,6797;2,999;;Sango_R_A__00364_D1_02092024.JPG;;Sango_L_B__00363_D1_02092024.JPG;3;456;355,6797;178,4035883;73,71701858;-90,02200557
103725843;0,4167;-0,5737;0,5579;0,4313;2024-09-02 04:48:27.843;16;-20,36593931;32,21773036;807,2439;3,001;;Sango_R_A__00365_D1_02092024.JPG;;Sango_L_B__00364_D1_02092024.JPG;3;455;352,2439;179,3626335;73,69616754;-88,87776377
103728842;0,4159;-0,5728;0,5597;0,4309;2024-09-02 04:48:30.842;16;-20,36592594;32,21887312;804,5677;2,999;;Sango_R_A__00366_D1_02092024.JPG;;Sango_L_B__00365_D1_02092024.JPG;3;452;352,5677;178,8055996;73,57413537;-89,56766036
103731843;0,4161;-0,5697;0,5606;0,4337;2024-09-02 04:48:33.843;16;-20,36592031;32,22002125;802,4498;3,001;;Sango_R_A__00367_D1_02092024.JPG;;Sango_L_B__00366_D1_02092024.JPG;3;452;350,4498;177,4917563;73,86845377;-90,96316552
103734842;0,4163;-0,5705;0,5588;0,4347;2024-09-02 04:48:36.842;16;-20,36591454;32,2211773;801,7958;2,999;;Sango_R_A__00368_D1_02092024.JPG;;Sango_L_B__00367_D1_02092024.JPG;3;453;348,7958;177,7500728;73,99798715;-90,50830198
103737843;0,4173;-0,5705;0,5596;0,4327;2024-09-02 04:48:39.843;16;-20,36592874;32,22232643;800,7717;3,001;;Sango_R_A__00369_D1_02092024.JPG;;Sango_L_B__00368_D1_02092024.JPG;3;451;349,7717;178,3186161;73,89635629;-90,15945028
103740843;0,4176;-0,5691;0,5614;0,4319;2024-09-02 04:48:42.843;16;-20,36595868;32,2234755;799,8699;3;;Sango_R_A__00370_D1_02092024.JPG;;Sango_L_B__00369_D1_02092024.JPG;3;450;349,8699;178,0179166;73,84172836;-90,70889621
103743842;0,4183;-0,5681;0,5624;0,4314;2024-09-02 04:48:45.842;16;-20,36598811;32,22462098;799,472;2,999;;Sango_R_A__00371_D1_02092024.JPG;;Sango_L_B__00370_D1_02092024.JPG;3;449;350,472;177,9464686;73,85328398;-90,96563287
103746843;0,418;-0,5686;0,5618;0,4317;2024-09-02 04:48:48.843;16;-20,36601719;32,22576323;799,6672;3,001;;Sango_R_A__00372_D1_02092024.JPG;;Sango_L_B__00371_D1_02092024.JPG;3;450;349,6672;177,9987102;73,85900813;-90,81496438
103749841;0,4169;-0,5699;0,5611;0,4318;2024-09-02 04:48:51.841;16;-20,36604459;32,22689862;799,2547;2,998;;Sango_R_A__00373_D1_02092024.JPG;;Sango_L_B__00372_D1_02092024.JPG;3;450;349,2547;178,0762486;73,76637894;-90,55198279
103752842;0,4186;-0,5678;0,5619;0,432;2024-09-02 04:48:54.842;16;-20,3660605;32,22803191;797,7082;3,001;;Sango_R_A__00374_D1_02092024.JPG;;Sango_L_B__00373_D1_02092024.JPG;3;445;352,7082;177,9023263;73,9503808;-90,98089996
103755842;0,4184;-0,5681;0,5623;0,4312;2024-09-02 04:48:57.842;16;-20,36606507;32,22916633;797,2292;3;;Sango_R_A__00375_D1_02092024.JPG;;Sango_L_B__00374_D1_02092024.JPG;3;449;348,2292;178,0337649;73,85224111;-90,88980058
103758842;0,417;-0,5696;0,5617;0,4315;2024-09-02 04:49:00.842;16;-20,36606839;32,23030243;795,4485;3;;Sango_R_A__00376_D1_02092024.JPG;;Sango_L_B__00375_D1_02092024.JPG;3;447;348,4485;178,0148385;73,73807493;-90,68869647
103761843;0,4181;-0,5698;0,5611;0,4309;2024-09-02 04:49:03.843;16;-20,36606776;32,23144728;793,2564;3,001;;Sango_R_A__00377_D1_02092024.JPG;;Sango_L_B__00376_D1_02092024.JPG;3;449;344,2564;178,5445814;73,79252923;-90,21110239
103764842;0,4179;-0,5691;0,5617;0,4313;2024-09-02 04:49:06.842;16;-20,36607937;32,23259125;792,3264;2,999;;Sango_R_A__00378_D1_02092024.JPG;;Sango_L_B__00377_D1_02092024.JPG;3;446;346,3264;178,177521;73,80835899;-90,61873315
103767843;0,4184;-0,5681;0,5631;0,4303;2024-09-02 04:49:09.843;16;-20,36609635;32,23373117;791,872;3,001;;Sango_R_A__00379_D1_02092024.JPG;;Sango_L_B__00378_D1_02092024.JPG;3;446;345,872;178,1117889;73,75504746;-90,91010599
103770842;0,419;-0,5671;0,5626;0,4317;2024-09-02 04:49:12.842;16;-20,36610953;32,23486675;791,1784;2,999;;Sango_R_A__00380_D1_02092024.JPG;;Sango_L_B__00379_D1_02092024.JPG;3;446;345,1784;177,8189148;73,95558017;-91,18586948
103773842;0,4181;-0,5701;0,5614;0,4302;2024-09-02 04:49:15.842;16;-20,36612783;32,23600054;790,5893;3;;Sango_R_A__00381_D1_02092024.JPG;;Sango_L_B__00380_D1_02092024.JPG;3;445;345,5893;178,7102263;73,7184563;-90,0859063
103776846;0,4193;-0,5679;0,5625;0,4304;2024-09-02 04:49:18.846;16;-20,36614868;32,23713349;789,8942;3,004;;Sango_R_A__00382_D1_02092024.JPG;;Sango_L_B__00381_D1_02092024.JPG;3;447;342,8942;178,3592605;73,860235;-90,68588015
103779841;0,4179;-0,569;0,5621;0,4308;2024-09-02 04:49:21.841;16;-20,36617331;32,23826027;789,177;2,995;;Sango_R_A__00383_D1_02092024.JPG;;Sango_L_B__00382_D1_02092024.JPG;3;446;343,177;178,2098541;73,76129177;-90,64415273
103782842;0,4179;-0,5685;0,5626;0,4309;2024-09-02 04:49:24.842;16;-20,36619634;32,23938407;788,7952;3,001;;Sango_R_A__00384_D1_02092024.JPG;;Sango_L_B__00383_D1_02092024.JPG;3;445;343,7952;178,0123581;73,76625329;-90,89379132
103785842;0,4184;-0,5678;0,563;0,4308;2024-09-02 04:49:27.842;16;-20,36621112;32,2404998;789,481;3;;Sango_R_A__00385_D1_02092024.JPG;;Sango_L_B__00384_D1_02092024.JPG;3;444;345,481;177,9563319;73,80588929;-91,04825129
103788842;0,4209;-0,5646;0,566;0,4285;2024-09-02 04:49:30.842;16;-20,36620994;32,24160694;789,684;3;;Sango_R_A__00386_D1_02092024.JPG;;Sango_L_B__00385_D1_02092024.JPG;3;444;345,684;177,9874244;73,82570432;-91,65375474
103791842;0,4218;-0,5648;0,5667;0,4266;2024-09-02 04:49:33.842;16;-20,36618607;32,24270809;790,055;3;;Sango_R_A__00387_D1_02092024.JPG;;Sango_L_B__00386_D1_02092024.JPG;3;446;344,055;178,5603375;73,72073157;-91,27181805
103794843;0,4158;-0,5715;0,5575;0,4355;2024-09-02 04:49:36.843;16;-20,36615217;32,24380153;790,2405;3,001;;Sango_R_A__00388_D1_02092024.JPG;;Sango_L_B__00387_D1_02092024.JPG;3;445;345,2405;177,8491825;74,03374951;-90,20092967
103797842;0,4123;-0,5766;0,554;0,4366;2024-09-02 04:49:39.842;16;-20,36614978;32,24488673;791,1223;2,999;;Sango_R_A__00389_D1_02092024.JPG;;Sango_L_B__00388_D1_02092024.JPG;3;444;347,1223;178,2969898;73,80558746;-88,98851725
103800842;0,4155;-0,5726;0,5579;0,4339;2024-09-02 04:49:42.842;16;-20,36618829;32,24596802;791,7478;3;;Sango_R_A__00390_D1_02092024.JPG;;Sango_L_B__00389_D1_02092024.JPG;3;446;345,7478;178,288101;73,83950906;-89,79633394
103803843;0,4156;-0,5708;0,5592;0,4346;2024-09-02 04:49:45.843;16;-20,36624307;32,24705036;790,647;3,001;;Sango_R_A__00391_D1_02092024.JPG;;Sango_L_B__00390_D1_02092024.JPG;3;442;348,647;177,5997049;73,91117301;-90,62965449
103806842;0,4179;-0,5702;0,5617;0,4298;2024-09-02 04:49:48.842;16;-20,36630506;32,24813685;789,9672;2,999;;Sango_R_A__00392_D1_02092024.JPG;;Sango_L_B__00391_D1_02092024.JPG;3;440;349,9672;178,7241615;73,66008569;-90,09500144
103809842;0,4167;-0,5685;0,5559;0,4406;2024-09-02 04:49:51.842;16;-20,3663692;32,24922786;788,8898;3;;Sango_R_A__00393_D1_02092024.JPG;;Sango_L_B__00392_D1_02092024.JPG;3;442;346,8898;176,5222902;74,63650205;-91,3673404
103812842;0,4168;-0,5701;0,5601;0,4331;2024-09-02 04:49:54.842;16;-20,36642746;32,25032096;788,0292;3;;Sango_R_A__00394_D1_02092024.JPG;;Sango_L_B__00393_D1_02092024.JPG;3;440;348,0292;177,9514747;73,88304483;-90,52659168
103815842;0,4173;-0,5691;0,5621;0,4313;2024-09-02 04:49:57.842;16;-20,36648438;32,25141835;786,3663;3;;Sango_R_A__00395_D1_02092024.JPG;;Sango_L_B__00394_D1_02092024.JPG;3;441;345,3663;177,973353;73,74874574;-90,8112048
103818842;0,4185;-0,5689;0,563;0,4293;2024-09-02 04:50:00.842;16;-20,36653285;32,25252288;784,324;3;;Sango_R_A__00396_D1_02092024.JPG;;Sango_L_B__00395_D1_02092024.JPG;3;441;343,324;178,5285779;73,66504593;-90,50479396
103821842;0,4181;-0,5682;0,5623;0,4314;2024-09-02 04:50:03.842;16;-20,36656254;32,25363533;783,0028;3;;Sango_R_A__00397_D1_02092024.JPG;;Sango_L_B__00396_D1_02092024.JPG;3;440;343,0028;177,9359138;73,8403636;-90,95293015
103824842;0,4178;-0,5693;0,5611;0,432;2024-09-02 04:50:06.842;16;-20,3665749;32,25474951;782,0848;3;;Sango_R_A__00398_D1_02092024.JPG;;Sango_L_B__00397_D1_02092024.JPG;3;442;340,0848;178,1269437;73,86682195;-90,57685316
103827843;0,4171;-0,5695;0,5612;0,4321;2024-09-02 04:50:09.843;16;-20,3665838;32,25586344;781,8283;3,001;;Sango_R_A__00399_D1_02092024.JPG;;Sango_L_B__00398_D1_02092024.JPG;3;440;341,8283;177,9623157;73,81255259;-90,68920205
103830842;0,4188;-0,5682;0,5628;0,43;2024-09-02 04:50:12.842;16;-20,36658669;32,25697422;782,1434;2,999;;Sango_R_A__00400_D1_02092024.JPG;;Sango_L_B__00399_D1_02092024.JPG;3;443;339,1434;178,3421813;73,77263321;-90,69702707
103833842;0,4186;-0,5693;0,5617;0,4302;2024-09-02 04:50:15.842;16;-20,36658915;32,2580848;782,0083;3;;Sango_R_A__00401_D1_02092024.JPG;;Sango_L_B__00400_D1_02092024.JPG;3;443;339,0083;178,6322901;73,77459594;-90,25644159
103836842;0,419;-0,5682;0,5628;0,4299;2024-09-02 04:50:18.842;16;-20,36659438;32,25919207;782,0632;3;;Sango_R_A__00402_D1_02092024.JPG;;Sango_L_B__00401_D1_02092024.JPG;3;443;339,0632;178,4113762;73,77943356;-90,6452427
103839842;0,4187;-0,5681;0,5631;0,43;2024-09-02 04:50:21.842;16;-20,36659708;32,26030815;779,9306;3;;Sango_R_A__00403_D1_02092024.JPG;;Sango_L_B__00402_D1_02092024.JPG;3;443;336,9306;178,2507746;73,7558016;-90,80584429
103842842;0,4184;-0,568;0,5627;0,4309;2024-09-02 04:50:24.842;16;-20,36658725;32,26142984;776,84;3;;Sango_R_A__00404_D1_02092024.JPG;;Sango_L_B__00403_D1_02092024.JPG;3;444;332,84;178,0192603;73,81786941;-90,95060092
103845843;0,4174;-0,5683;0,5626;0,4317;2024-09-02 04:50:27.843;16;-20,36656897;32,2625639;774,4289;3,001;;Sango_R_A__00405_D1_02092024.JPG;;Sango_L_B__00404_D1_02092024.JPG;3;442;332,4289;177,6732588;73,79313141;-91,16929011
103848843;0,4185;-0,5677;0,5613;0,433;2024-09-02 04:50:30.843;16;-20,36653488;32,26370907;771,2823;3;;Sango_R_A__00406_D1_02092024.JPG;;Sango_L_B__00405_D1_02092024.JPG;3;441;330,2823;177,7234437;74,04189777;-91,06732896
103851842;0,4181;-0,5697;0,5606;0,4317;2024-09-02 04:50:33.842;16;-20,36650666;32,26485937;768,8761;2,999;;Sango_R_A__00407_D1_02092024.JPG;;Sango_L_B__00406_D1_02092024.JPG;3;439;329,8761;178,4240813;73,87330942;-90,26229087
103854843;0,4184;-0,5686;0,5618;0,4313;2024-09-02 04:50:36.843;16;-20,36649245;32,2660151;767,0658;3,001;;Sango_R_A__00408_D1_02092024.JPG;;Sango_L_B__00407_D1_02092024.JPG;3;443;324,0658;178,1850628;73,85999342;-90,67490427
103857842;0,4181;-0,5693;0,5615;0,431;2024-09-02 04:50:39.842;16;-20,36649291;32,26717026;765,5929;2,999;;Sango_R_A__00409_D1_02092024.JPG;;Sango_L_B__00408_D1_02092024.JPG;3;440;325,5929;178,3637998;73,802878;-90,43818071
103860842;0,4194;-0,5685;0,5617;0,4306;2024-09-02 04:50:42.842;16;-20,36650786;32,26831724;764,996;3;;Sango_R_A__00410_D1_02092024.JPG;;Sango_L_B__00409_D1_02092024.JPG;3;439;325,996;178,5795506;73,89083147;-90,37884188
103863842;0,4203;-0,5673;0,564;0,4283;2024-09-02 04:50:45.842;16;-20,3665398;32,26945506;765,3141;3;;Sango_R_A__00411_D1_02092024.JPG;;Sango_L_B__00410_D1_02092024.JPG;3;438;327,3141;178,7205186;73,74594349;-90,62547336
103866842;0,4194;-0,567;0,5639;0,4297;2024-09-02 04:50:48.842;16;-20,36657342;32,2705874;765,4593;3;;Sango_R_A__00412_D1_02092024.JPG;;Sango_L_B__00411_D1_02092024.JPG;3;439;326,4593;178,1486558;73,79490722;-91,07583738
103869842;0,42;-0,5658;0,5647;0,4296;2024-09-02 04:50:51.842;16;-20,36659481;32,27171095;764,8904;3;;Sango_R_A__00413_D1_02092024.JPG;;Sango_L_B__00412_D1_02092024.JPG;3;441;323,8904;177,9571555;73,84455755;-91,42362441
103872842;0,4216;-0,5649;0,5632;0,4312;2024-09-02 04:50:54.842;16;-20,36660147;32,27283121;764,1029;3;;Sango_R_A__00414_D1_02092024.JPG;;Sango_L_B__00413_D1_02092024.JPG;3;440;324,1029;178,0294543;74,16956574;-91,31686783
103875842;0,4192;-0,5703;0,5601;0,4305;2024-09-02 04:50:57.842;16;-20,36661716;32,27394416;763,8638;3;;Sango_R_A__00415_D1_02092024.JPG;;Sango_L_B__00414_D1_02092024.JPG;3;437;326,8638;179,1533766;73,8637813;-89,60243282
103878843;0,4192;-0,5683;0,5627;0,4296;2024-09-02 04:51:00.843;16;-20,3666661;32,27504663;764,2666;3,001;;Sango_R_A__00416_D1_02092024.JPG;;Sango_L_B__00415_D1_02092024.JPG;3;441;323,2666;178,5625049;73,77365844;-90,51142928
103881842;0,4197;-0,5683;0,5625;0,4295;2024-09-02 04:51:03.842;16;-20,36672239;32,27614469;763,1166;2,999;;Sango_R_A__00417_D1_02092024.JPG;;Sango_L_B__00416_D1_02092024.JPG;3;443;320,1166;178,7347823;73,80998739;-90,36239382
103884842;0,4195;-0,568;0,5635;0,4288;2024-09-02 04:51:06.842;16;-20,36678481;32,27724363;762,0128;3;;Sango_R_A__00418_D1_02092024.JPG;;Sango_L_B__00417_D1_02092024.JPG;3;444;318,0128;178,62961;73,71681058;-90,57165384
103887843;0,4201;-0,5659;0,5649;0,4292;2024-09-02 04:51:09.843;16;-20,36683038;32,27833987;762,68;3,001;;Sango_R_A__00419_D1_02092024.JPG;;Sango_L_B__00418_D1_02092024.JPG;3;441;321,68;178,0595527;73,81118094;-91,35594914
103890843;0,4203;-0,5652;0,5649;0,4298;2024-09-02 04:51:12.843;16;-20,36684619;32,2794243;762,0531;3;;Sango_R_A__00420_D1_02092024.JPG;;Sango_L_B__00419_D1_02092024.JPG;3;440;322,0531;177,8345472;73,89510325;-91,59834437
103893842;0,4199;-0,5663;0,564;0,4301;2024-09-02 04:51:15.842;16;-20,36684405;32,28051128;762,1899;2,999;;Sango_R_A__00421_D1_02092024.JPG;;Sango_L_B__00420_D1_02092024.JPG;3;440;322,1899;178,0239419;73,88126696;-91,25274577
103896842;0,4188;-0,5697;0,5615;0,4298;2024-09-02 04:51:18.842;16;-20,36683864;32,28159296;762,3669;3;;Sango_R_A__00422_D1_02092024.JPG;;Sango_L_B__00421_D1_02092024.JPG;3;438;324,3669;178,876698;73,7527277;-90,0120337
103899842;0,4185;-0,5683;0,5613;0,4323;2024-09-02 04:51:21.842;16;-20,36684092;32,28266954;762,4294;3;;Sango_R_A__00423_D1_02092024.JPG;;Sango_L_B__00422_D1_02092024.JPG;3;443;319,4294;178,0010676;73,96933406;-90,79542967
103902842;0,4191;-0,5674;0,5625;0,4312;2024-09-02 04:51:24.842;16;-20,36685377;32,28374969;762,3387;3;;Sango_R_A__00424_D1_02092024.JPG;;Sango_L_B__00423_D1_02092024.JPG;3;442;320,3387;178,0330265;73,92150144;-90,98323011
103905842;0,4274;-0,5627;0,5699;0,4195;2024-09-02 04:51:27.842;16;-20,36687395;32,28483151;761,9879;3;;Sango_R_A__00425_D1_02092024.JPG;;Sango_L_B__00424_D1_02092024.JPG;3;445;316,9879;-179,422564;73,57492081;-90,29667316
103908842;0,4256;-0,5649;0,563;0,4275;2024-09-02 04:51:30.842;16;-20,36690541;32,28591781;760,5229;3;;Sango_R_A__00426_D1_02092024.JPG;;Sango_L_B__00425_D1_02092024.JPG;3;445;315,5229;179,890094;74,20493588;-89,89009405
103911843;0,4165;-0,5708;0,5589;0,434;2024-09-02 04:51:33.843;16;-20,36694203;32,28701098;758,8846;3,001;;Sango_R_A__00427_D1_02092024.JPG;;Sango_L_B__00426_D1_02092024.JPG;3;449;309,8846;178,000348;73,94743106;-90,29843786
103914843;0,4164;-0,5698;0,5602;0,4337;2024-09-02 04:51:36.843;16;-20,36696758;32,2881154;755,9543;3;;Sango_R_A__00428_D1_02092024.JPG;;Sango_L_B__00427_D1_02092024.JPG;3;446;309,9543;177,6458754;73,9038104;-90,79747426
103917842;0,4166;-0,5699;0,5606;0,4328;2024-09-02 04:51:39.842;16;-20,36699476;32,28923321;753,8893;2,999;;Sango_R_A__00429_D1_02092024.JPG;;Sango_L_B__00428_D1_02092024.JPG;3;443;310,8893;177,8559792;73,83518131;-90,66822752
103920843;0,4165;-0,5714;0,5596;0,4322;2024-09-02 04:51:42.843;16;-20,36702875;32,29035286;751,7875;3,001;;Sango_R_A__00430_D1_02092024.JPG;;Sango_L_B__00429_D1_02092024.JPG;3;448;303,7875;178,4126599;73,76898637;-89,9956519
103923842;0,4163;-0,5706;0,5595;0,4336;2024-09-02 04:51:45.842;16;-20,36706047;32,29147577;749,9115;2,999;;Sango_R_A__00431_D1_02092024.JPG;;Sango_L_B__00430_D1_02092024.JPG;3;441;308,9115;177,9106582;73,88827291;-90,44581795
103926841;0,4164;-0,5702;0,5599;0,4336;2024-09-02 04:51:48.841;16;-20,36709141;32,29260278;748,2804;2,999;;Sango_R_A__00432_D1_02092024.JPG;;Sango_L_B__00431_D1_02092024.JPG;3;439;309,2804;177,7931744;73,893717;-90,61545886
103929843;0,4175;-0,5699;0,5597;0,4332;2024-09-02 04:51:51.843;16;-20,36712524;32,29372965;746,7522;3,002;;Sango_R_A__00433_D1_02092024.JPG;;Sango_L_B__00432_D1_02092024.JPG;3;441;305,7522;178,1209359;73,96496971;-90,3804264
103932842;0,4177;-0,5703;0,5603;0,4316;2024-09-02 04:51:54.842;16;-20,36716609;32,2948581;745,3225;2,999;;Sango_R_A__00434_D1_02092024.JPG;;Sango_L_B__00433_D1_02092024.JPG;3;453;292,3225;178,5140887;73,82694455;-90,10270746
103935842;0,4184;-0,5685;0,5623;0,4308;2024-09-02 04:51:57.842;16;-20,36720535;32,29598326;744,6265;3;;Sango_R_A__00435_D1_02092024.JPG;;Sango_L_B__00434_D1_02092024.JPG;3;433;311,6265;178,2005027;73,80793669;-90,72306276
103938842;0,42;-0,5668;0,5634;0,43;2024-09-02 04:52:00.842;16;-20,36722834;32,29710151;745,024;3;;Sango_R_A__00436_D1_02092024.JPG;;Sango_L_B__00435_D1_02092024.JPG;3;438;307,024;178,2629559;73,88808933;-90,96161565
103941843;0,4195;-0,5674;0,5624;0,431;2024-09-02 04:52:03.843;16;-20,36723656;32,29820789;745,5857;3,001;;Sango_R_A__00437_D1_02092024.JPG;;Sango_L_B__00436_D1_02092024.JPG;3;437;308,5857;178,1894451;73,94025688;-90,85579203
103944842;0,4183;-0,5689;0,5623;0,4303;2024-09-02 04:52:06.842;16;-20,36723494;32,29930493;745,3811;2,999;;Sango_R_A__00438_D1_02092024.JPG;;Sango_L_B__00437_D1_02092024.JPG;3;440;305,3811;178,3670378;73,75054196;-90,55641898
103947843;0,4194;-0,5669;0,5626;0,4315;2024-09-02 04:52:09.843;16;-20,36722298;32,30039695;745,3013;3,001;;Sango_R_A__00439_D1_02092024.JPG;;Sango_L_B__00438_D1_02092024.JPG;3;444;301,3013;177,9218372;73,97886172;-91,12923397
104002435;0,4347;-0,5442;0,5828;0,4185;2024-09-02 04:53:04.435;16;-20,36390735;32,30347411;764,9378;54,592;;Sango_R_A__00440_D1_02092024.JPG;;Sango_L_B__00439_D1_02092024.JPG;55;439;325,9378;176,9081573;74,20941519;-96,26223714
104005036;0,4308;-0,5521;0,5707;0,4288;2024-09-02 04:53:07.036;16;-20,36393161;32,30247368;765,5565;2,601;;Sango_R_A__00441_D1_02092024.JPG;;Sango_L_B__00440_D1_02092024.JPG;2;440;325,5565;176,986505;74,84543199;-94,20422403
104008036;0,4395;-0,5382;0,5899;0,4113;2024-09-02 04:53:10.036;16;-20,36396909;32,30131791;766,754;3;;Sango_R_A__00442_D1_02092024.JPG;;Sango_L_B__00441_D1_02092024.JPG;3;439;327,754;177,4681162;74,00277337;-97,15611697
104011036;0,4395;-0,541;0,5874;0,4113;2024-09-02 04:53:13.036;16;-20,36398884;32,30016099;768,1667;3;;Sango_R_A__00443_D1_02092024.JPG;;Sango_L_B__00442_D1_02092024.JPG;3;439;329,1667;178,4075152;74,00907584;-95,90962576
104014036;0,4379;-0,5435;0,5856;0,4122;2024-09-02 04:53:16.036;16;-20,36396895;32,29901157;769,3473;3;;Sango_R_A__00444_D1_02092024.JPG;;Sango_L_B__00443_D1_02092024.JPG;3;440;329,3473;178,5979192;73,93418258;-95,32602518
104017036;0,4382;-0,5406;0,5854;0,4159;2024-09-02 04:53:19.036;16;-20,36393602;32,29785056;766,7134;3;;Sango_R_A__00445_D1_02092024.JPG;;Sango_L_B__00444_D1_02092024.JPG;3;441;325,7134;177,2103439;74,31861195;-96,67135516
104020036;0,4379;-0,5409;0,586;0,415;2024-09-02 04:53:22.036;16;-20,36391174;32,29666088;764,6179;3;;Sango_R_A__00446_D1_02092024.JPG;;Sango_L_B__00445_D1_02092024.JPG;3;442;322,6179;177,3350647;74,19909633;-96,59925391
104023036;0,4397;-0,541;0,5883;0,4097;2024-09-02 04:53:25.036;16;-20,36388074;32,29546013;764,6934;3;;Sango_R_A__00447_D1_02092024.JPG;;Sango_L_B__00446_D1_02092024.JPG;3;445;319,6934;178,7003561;73,87892694;-95,77400856
104026036;0,4398;-0,5407;0,5882;0,4103;2024-09-02 04:53:28.036;16;-20,36384621;32,29426527;765,0905;3;;Sango_R_A__00448_D1_02092024.JPG;;Sango_L_B__00447_D1_02092024.JPG;3;447;318,0905;178,5341445;73,94101255;-95,92219788
104029036;0,4513;-0,5287;0,5999;0,3961;2024-09-02 04:53:31.036;16;-20,36382011;32,29306825;765,1354;3;;Sango_R_A__00449_D1_02092024.JPG;;Sango_L_B__00448_D1_02092024.JPG;3;449;316,1354;-179,5964741;73,80830471;-96,91664887
104032036;0,436;-0,5428;0,5861;0,4144;2024-09-02 04:53:34.036;16;-20,3637974;32,29186883;765,8968;3;;Sango_R_A__00450_D1_02092024.JPG;;Sango_L_B__00449_D1_02092024.JPG;3;441;324,8968;177,4226824;73,94200397;-96,33335692
104035036;0,4411;-0,5425;0,5888;0,4054;2024-09-02 04:53:37.036;16;-20,36377562;32,29067572;767,2077;3;;Sango_R_A__00451_D1_02092024.JPG;;Sango_L_B__00450_D1_02092024.JPG;3;443;324,2077;-179,7573783;73,61434773;-94,50564878
104038036;0,4384;-0,5422;0,5868;0,4117;2024-09-02 04:53:40.036;16;-20,36375277;32,28948234;768,2898;3;;Sango_R_A__00452_D1_02092024.JPG;;Sango_L_B__00451_D1_02092024.JPG;3;451;317,2898;178,3910256;73,93480708;-95,73551986
104041036;0,4376;-0,5423;0,5856;0,414;2024-09-02 04:53:43.036;16;-20,36373266;32,28828896;768,844;3;;Sango_R_A__00453_D1_02092024.JPG;;Sango_L_B__00452_D1_02092024.JPG;3;440;328,844;177,8574068;74,07705457;-96,0139034
104044036;0,4352;-0,5439;0,5857;0,4143;2024-09-02 04:53:46.036;16;-20,36371569;32,28709343;768,9543;3;;Sango_R_A__00454_D1_02092024.JPG;;Sango_L_B__00453_D1_02092024.JPG;3;447;321,9543;177,5472984;73,85277285;-96,08187058
104047036;0,4372;-0,5372;0,5904;0,4144;2024-09-02 04:53:49.036;16;-20,36369623;32,28589179;767,5841;3;;Sango_R_A__00455_D1_02092024.JPG;;Sango_L_B__00454_D1_02092024.JPG;3;449;318,5841;175,9135376;74,03939066;-98,48454329
104050036;0,4354;-0,5458;0,5779;0,4225;2024-09-02 04:53:52.036;16;-20,36367883;32,28467535;766,5479;3;;Sango_R_A__00456_D1_02092024.JPG;;Sango_L_B__00455_D1_02092024.JPG;3;450;316,5479;177,1693308;74,68513441;-95,43247284
104053036;0,4356;-0,5434;0,5859;0,4142;2024-09-02 04:53:55.036;16;-20,3636684;32,28345519;766,0757;3;;Sango_R_A__00457_D1_02092024.JPG;;Sango_L_B__00456_D1_02092024.JPG;3;441;325,0757;177,5321082;73,88617582;-96,1664708
104056036;0,4404;-0,5478;0,5819;0,409;2024-09-02 04:53:58.036;16;-20,36366201;32,28223503;767,3976;3;;Sango_R_A__00458_D1_02092024.JPG;;Sango_L_B__00457_D1_02092024.JPG;3;440;327,3976;-178,6563259;73,88559177;-92,44744735
104059036;0,4374;-0,5407;0,5864;0,4153;2024-09-02 04:54:01.036;16;-20,36365702;32,28102633;768,1089;3;;Sango_R_A__00459_D1_02092024.JPG;;Sango_L_B__00458_D1_02092024.JPG;3;440;328,1089;177,0457035;74,16980809;-96,87705259
104062036;0,437;-0,5421;0,5868;0,4133;2024-09-02 04:54:04.036;16;-20,36366009;32,27981805;768,1594;3;;Sango_R_A__00460_D1_02092024.JPG;;Sango_L_B__00459_D1_02092024.JPG;3;444;324,1594;177,6686952;73,93952504;-96,28994686
104065036;0,4383;-0,5401;0,5861;0,4154;2024-09-02 04:54:07.036;16;-20,36366595;32,2786032;768,6399;3;;Sango_R_A__00461_D1_02092024.JPG;;Sango_L_B__00460_D1_02092024.JPG;3;443;325,6399;177,1476581;74,28075049;-96,83848948
104068036;0,4378;-0,5439;0,5852;0,4124;2024-09-02 04:54:10.036;16;-20,36366299;32,27739422;770,011;3;;Sango_R_A__00462_D1_02092024.JPG;;Sango_L_B__00461_D1_02092024.JPG;3;443;327,011;178,6671854;73,94198703;-95,19294989
104071036;0,4401;-0,5426;0,5859;0,4107;2024-09-02 04:54:13.036;16;-20,36363763;32,27619482;771,4087;3;;Sango_R_A__00463_D1_02092024.JPG;;Sango_L_B__00462_D1_02092024.JPG;3;437;334,4087;179,238045;74,01772422;-94,9690297
104074036;0,4368;-0,542;0,5856;0,4153;2024-09-02 04:54:16.036;16;-20,36360633;32,27499554;770,9925;3;;Sango_R_A__00464_D1_02092024.JPG;;Sango_L_B__00463_D1_02092024.JPG;3;438;332,9925;177,2971027;74,11314362;-96,46974247
104077036;0,435;-0,5446;0,5836;0,4166;2024-09-02 04:54:19.036;16;-20,3635787;32,27377386;767,3762;3;;Sango_R_A__00465_D1_02092024.JPG;;Sango_L_B__00464_D1_02092024.JPG;3;438;329,3762;177,401417;74,05637755;-95,91998586
104080036;0,4376;-0,5429;0,5857;0,4133;2024-09-02 04:54:22.036;16;-20,36355155;32,27253184;765,9188;3;;Sango_R_A__00466_D1_02092024.JPG;;Sango_L_B__00465_D1_02092024.JPG;3;437;328,9188;178,1301014;74,00254331;-95,75277342
104083036;0,4369;-0,5428;0,5865;0,4129;2024-09-02 04:54:25.036;16;-20,36353718;32,27128959;765,0573;3;;Sango_R_A__00467_D1_02092024.JPG;;Sango_L_B__00466_D1_02092024.JPG;3;439;326,0573;177,9274684;73,89297132;-95,99089085
104086036;0,4361;-0,5415;0,5853;0,4171;2024-09-02 04:54:28.036;16;-20,36353709;32,2700496;766,1172;3;;Sango_R_A__00468_D1_02092024.JPG;;Sango_L_B__00467_D1_02092024.JPG;3;441;325,1172;176,6373278;74,20931818;-96,99597432
104089036;0,4383;-0,5425;0,5866;0,4117;2024-09-02 04:54:31.036;16;-20,36354571;32,26881758;767,0149;3;;Sango_R_A__00469_D1_02092024.JPG;;Sango_L_B__00468_D1_02092024.JPG;3;441;326,0149;178,4580881;73,92474775;-95,63376153
104092036;0,4364;-0,5437;0,5845;0,415;2024-09-02 04:54:34.036;16;-20,36355756;32,26758433;765,9567;3;;Sango_R_A__00470_D1_02092024.JPG;;Sango_L_B__00469_D1_02092024.JPG;3;444;321,9567;177,7905528;74,04953031;-95,80878585
104095036;0,4366;-0,5436;0,5842;0,4154;2024-09-02 04:54:37.036;16;-20,36357447;32,26635113;765,2921;3;;Sango_R_A__00471_D1_02092024.JPG;;Sango_L_B__00470_D1_02092024.JPG;3;449;316,2921;177,7643177;74,10762312;-95,8115281
104098036;0,4377;-0,544;0,5858;0,4116;2024-09-02 04:54:40.036;16;-20,36358148;32,26512413;765,2269;3;;Sango_R_A__00472_D1_02092024.JPG;;Sango_L_B__00471_D1_02092024.JPG;3;447;318,2269;178,761376;73,85072785;-95,16854984
104101036;0,4378;-0,543;0,586;0,4124;2024-09-02 04:54:43.036;16;-20,36357057;32,26391186;766,7532;3;;Sango_R_A__00473_D1_02092024.JPG;;Sango_L_B__00472_D1_02092024.JPG;3;446;320,7532;178,367164;73,94153144;-95,59147807
104104036;0,4368;-0,5441;0,5852;0,4131;2024-09-02 04:54:46.036;16;-20,36353095;32,26271444;768,2712;3;;Sango_R_A__00474_D1_02092024.JPG;;Sango_L_B__00473_D1_02092024.JPG;3;445;323,2712;178,3116553;73,90729798;-95,43879005
104107036;0,4383;-0,5417;0,5875;0,4115;2024-09-02 04:54:49.036;16;-20,36347923;32,26152912;769,0888;3;;Sango_R_A__00475_D1_02092024.JPG;;Sango_L_B__00474_D1_02092024.JPG;3;446;323,0888;178,210677;73,90196497;-95,99125236
104110036;0,4384;-0,542;0,5863;0,4127;2024-09-02 04:54:52.036;16;-20,36343024;32,26034845;769,4782;3;;Sango_R_A__00476_D1_02092024.JPG;;Sango_L_B__00475_D1_02092024.JPG;3;445;324,4782;178,1866106;74,03047383;-95,86414606
104113036;0,4368;-0,5435;0,5856;0,4134;2024-09-02 04:54:55.036;16;-20,36338564;32,25916744;769,5496;3;;Sango_R_A__00477_D1_02092024.JPG;;Sango_L_B__00476_D1_02092024.JPG;3;447;322,5496;178,059479;73,93183188;-95,7312597
104116036;0,4369;-0,5406;0,5878;0,4141;2024-09-02 04:54:58.036;16;-20,36335629;32,25799063;769,5578;3;;Sango_R_A__00478_D1_02092024.JPG;;Sango_L_B__00477_D1_02092024.JPG;3;443;326,5578;176,9986003;73,99372446;-97,05215636
104119035;0,4388;-0,5398;0,5898;0,4102;2024-09-02 04:55:01.035;16;-20,36333704;32,25681328;770,2309;2,999;;Sango_R_A__00479_D1_02092024.JPG;;Sango_L_B__00478_D1_02092024.JPG;3;443;327,2309;177,9136535;73,82290058;-96,63611059
104122036;0,4373;-0,5418;0,5863;0,4141;2024-09-02 04:55:04.036;16;-20,36332988;32,25563605;769,915;3,001;;Sango_R_A__00480_D1_02092024.JPG;;Sango_L_B__00479_D1_02092024.JPG;3;441;328,915;177,5569118;74,04792238;-96,36065629
104125036;0,441;-0,5407;0,5861;0,4119;2024-09-02 04:55:07.036;16;-20,36332164;32,25445392;769,3398;3;;Sango_R_A__00481_D1_02092024.JPG;;Sango_L_B__00480_D1_02092024.JPG;3;440;329,3398;178,7494365;74,22928031;-95,56083508
104128036;0,4383;-0,5207;0,5989;0,422;2024-09-02 04:55:10.036;16;-20,36330164;32,25326897;768,9557;3;;Sango_R_A__00482_D1_02092024.JPG;;Sango_L_B__00481_D1_02092024.JPG;3;441;327,9557;169,3062868;74,68015621;-106,1589843
104131036;0,4362;-0,5434;0,5865;0,4128;2024-09-02 04:55:13.036;16;-20,36327371;32,25208415;769,5441;3;;Sango_R_A__00483_D1_02092024.JPG;;Sango_L_B__00482_D1_02092024.JPG;3;442;327,5441;177,9129903;73,81181057;-95,93635639
104134036;0,4339;-0,5466;0,5841;0,4144;2024-09-02 04:55:16.036;16;-20,36324421;32,25090027;769,2802;3;;Sango_R_A__00484_D1_02092024.JPG;;Sango_L_B__00483_D1_02092024.JPG;3;442;327,2802;178,0027377;73,73176666;-95,29686494
